City_ID,City,Cloudiness,Country,Date,Humidity,Lat,Lng,Max Temp,Wind Speed
0,bakchar,44,RU,1524139567,67,57.02,82.07,35.38,4.63
1,novyy buh,0,UA,1524138000,44,47.69,32.52,59.0,20.13
2,pevek,8,RU,1524139568,53,69.7,170.27,15.49,4.52
3,nikolskoye,0,RU,1524137400,50,59.7,30.79,57.2,11.18
4,mataura,92,NZ,1524139568,93,-46.19,168.86,50.86,14.7
5,rikitea,36,PF,1524139569,100,-23.12,-134.97,75.97,14.58
6,victoria,90,BN,1524137400,88,5.28,115.24,84.2,6.93
7,haines junction,56,CA,1524139570,64,60.75,-137.51,10.27,2.06
8,sechura,20,PE,1524139570,94,-5.56,-80.82,64.9,8.43
9,hermanus,8,ZA,1524139570,59,-34.42,19.24,64.54,6.08
10,itarema,8,BR,1524139571,97,-2.92,-39.92,83.08,9.55
11,bredasdorp,56,ZA,1524135600,40,-34.53,20.04,71.6,13.87
12,butaritari,88,KI,1524139571,100,3.07,172.79,83.26,14.14
13,georgetown,75,GY,1524135600,94,6.8,-58.16,75.2,2.24
14,awjilah,92,LY,1524139572,27,29.14,21.3,86.14,14.7
15,chuy,0,UY,1524139343,80,-33.69,-53.46,73.36,11.56
16,barrow,68,AR,1524139573,94,-38.31,-60.23,64.27,5.08
17,kodiak,1,US,1524135180,92,39.95,-94.76,28.4,3.36
18,manono,0,CD,1524139573,50,-7.3,27.4,93.07,4.97
19,ekhabi,8,RU,1524139574,75,53.51,142.97,20.08,5.53
20,buala,76,SB,1524139574,97,-8.15,159.59,80.74,4.97
21,akureyri,0,IS,1524135600,58,65.68,-18.09,53.6,4.7
22,albany,90,US,1524138660,80,42.65,-73.75,35.6,3.36
23,hobart,75,AU,1524137400,81,-42.88,147.33,51.8,4.7
24,cabo san lucas,5,MX,1524138240,44,22.89,-109.91,60.8,17.72
25,new norfolk,75,AU,1524137400,81,-42.78,147.06,51.8,4.7
26,avarua,20,CK,1524135600,73,-21.21,-159.78,77.0,9.17
27,caravelas,64,BR,1524139576,100,-17.73,-39.27,78.49,16.15
28,jalu,92,LY,1524139576,24,29.03,21.55,90.01,13.02
29,linjiang,0,CN,1524139577,70,41.81,126.91,48.34,3.51
30,takapau,12,NZ,1524139577,70,-40.02,176.35,55.9,17.6
31,bellavista,24,CO,1524139577,94,10.27,-74.82,77.95,4.41
32,yar-sale,80,RU,1524139578,91,66.83,70.83,21.07,15.82
33,ushuaia,75,AR,1524135600,86,-54.81,-68.31,41.0,3.96
34,saskylakh,8,RU,1524139578,83,71.97,114.09,5.41,3.51
35,provideniya,0,RU,1524139579,100,64.42,-173.23,25.21,15.59
36,nome,90,US,1524138900,39,30.04,-94.42,64.4,11.41
37,kiunga,32,PG,1524139579,95,-6.12,141.3,76.51,2.06
38,majene,48,ID,1524139579,97,-3.54,118.97,83.8,10.67
39,almaznyy,92,RU,1524139580,62,48.03,40.04,55.54,16.71
40,fortuna,0,ES,1524139200,72,38.18,-1.13,73.4,11.41
41,stepnogorsk,0,KZ,1524139581,76,52.35,71.88,39.34,5.19
42,minab,20,IR,1524137400,51,27.15,57.07,86.0,20.8
43,cape town,75,ZA,1524135600,77,-33.93,18.42,62.6,9.17
44,rumoi,40,JP,1524135600,70,43.93,141.67,46.4,3.36
45,abeche,0,TD,1524135600,10,13.83,20.83,102.2,13.87
46,kapaa,90,US,1524137160,83,22.08,-159.32,75.2,14.99
47,gat,0,SN,1524139582,53,14.69,-16.54,82.63,11.01
48,nemuro,44,JP,1524139583,100,43.32,145.57,35.47,7.76
49,yangambi,0,CD,1524139583,39,0.77,24.47,97.75,2.73
50,katherine,75,AU,1524137400,48,-14.47,132.26,87.8,8.05
51,bereda,40,ES,1524139200,77,43.27,-7.54,60.8,9.17
52,paciran,64,ID,1524139584,99,-6.9,112.33,74.53,3.74
53,sarauli,0,IN,1524139585,18,25.12,82.58,97.75,8.99
54,khatanga,76,RU,1524139585,88,71.98,102.47,13.33,4.18
55,coahuayana,0,MX,1524139586,73,18.62,-100.35,59.77,0.6
56,broken hill,0,AU,1524139586,66,-31.97,141.45,61.39,6.2
57,klaksvik,56,FO,1524138600,93,62.23,-6.59,48.2,12.75
58,hilo,20,US,1524135180,94,19.71,-155.08,69.8,6.93
59,cap malheureux,40,MU,1524135600,74,-19.98,57.61,86.0,16.11
60,vao,0,EE,1524139588,74,59.1,26.19,51.49,9.55
61,ribeira grande,20,PT,1524137400,67,38.52,-28.7,60.8,9.17
62,san patricio,0,PY,1524139589,73,-26.98,-56.83,76.69,4.97
63,castro,92,CL,1524139589,94,-42.48,-73.76,57.07,11.01
64,beatrice,1,US,1524138840,92,40.27,-96.75,28.4,5.82
65,prince george,90,CA,1524135600,59,53.92,-122.75,35.6,3.36
66,busselton,92,AU,1524139590,100,-33.64,115.35,62.2,8.21
67,tasiilaq,75,GL,1524138600,86,65.61,-37.64,33.8,4.7
68,fare,88,PF,1524139591,100,-16.7,-151.02,81.64,6.76
69,salalah,20,OM,1524135000,66,17.01,54.1,87.8,16.11
70,pec,0,DE,1524135600,37,49.4,12.83,69.8,4.7
71,buraydah,0,SA,1524135600,18,26.33,43.97,91.4,5.82
72,vallenar,12,CL,1524139592,81,-28.58,-70.76,52.39,2.51
73,margate,75,AU,1524137400,81,-43.03,147.26,51.8,4.7
74,ihosy,48,MG,1524139593,59,-22.4,46.13,77.32,4.18
75,igrim,80,RU,1524139593,57,63.19,64.42,33.76,7.99
76,arraial do cabo,20,BR,1524135600,100,-22.97,-42.02,69.8,4.7
77,dwarka,40,IN,1524137400,15,28.58,77.04,105.8,13.87
78,tabou,32,CI,1524139594,100,4.42,-7.36,82.54,10.22
79,zonguldak,40,TR,1524135000,63,41.25,31.83,64.4,11.41
80,pangnirtung,5,CA,1524135600,77,66.15,-65.72,5.0,3.36
81,taltal,48,CL,1524139595,95,-25.41,-70.49,57.97,1.39
82,la ronge,20,CA,1524135600,68,55.1,-105.3,30.2,6.93
83,kloulklubed,75,PW,1524135060,88,7.04,134.26,80.6,4.7
84,chokurdakh,0,RU,1524139596,56,70.62,147.9,6.76,5.64
85,cherskiy,8,RU,1524139596,77,68.75,161.3,11.35,2.51
86,tiksi,68,RU,1524139520,70,71.64,128.87,11.26,3.06
87,tuktoyaktuk,48,CA,1524135600,68,69.44,-133.03,-13.01,8.05
88,penzance,75,GB,1524138600,93,50.12,-5.53,55.4,5.82
89,ayan,0,TR,1524139597,40,40.67,33.6,62.56,5.41
90,east london,0,ZA,1524135600,52,-33.02,27.91,68.0,14.99
91,tigil,80,RU,1524139601,89,57.8,158.67,23.59,6.76
92,capreol,75,CA,1524135600,68,46.71,-80.92,24.8,18.34
93,kavieng,64,PG,1524139601,100,-2.57,150.8,82.27,5.19
94,wahiawa,75,US,1524137460,100,21.5,-158.02,75.2,3.36
95,santa fe,0,AR,1524139602,81,-31.62,-60.7,73.81,9.55
96,mozarlandia,36,BR,1524139602,76,-14.74,-50.57,76.15,9.78
97,lata,48,IN,1524139603,94,30.78,78.62,50.41,1.5
98,husavik,48,CA,1524139603,60,50.56,-96.99,28.81,2.51
99,punta arenas,75,CL,1524135600,93,-53.16,-70.91,46.4,9.17
100,okhotsk,32,RU,1524139604,99,59.36,143.24,19.36,2.95
101,saint-augustin,0,FR,1524139200,36,44.83,-0.61,82.4,12.75
102,barabinsk,0,RU,1524139604,55,55.35,78.35,39.43,8.99
103,bluff,36,AU,1524139605,52,-23.58,149.07,77.59,11.01
104,esfarayen,75,IR,1524135600,29,37.08,57.51,62.6,3.06
105,hobyo,20,SO,1524139605,100,5.35,48.53,81.73,4.74
106,karratha,0,AU,1524139382,31,-20.74,116.85,84.43,11.12
107,lagoa,0,PT,1524137400,40,37.14,-8.45,71.6,16.11
108,udachnyy,56,RU,1524139606,62,66.42,112.4,24.22,4.97
109,jamestown,0,AU,1524139607,57,-33.21,138.6,62.02,8.66
110,riberalta,75,BO,1524135600,94,-11.0,-66.08,75.2,2.62
111,baykalsk,0,RU,1524139607,81,51.52,104.15,26.38,2.39
112,hanmer springs,64,NZ,1524139608,65,-42.52,172.83,52.75,13.13
113,pecos,90,US,1524138900,24,31.42,-103.49,55.4,3.36
114,imbituba,0,BR,1524135600,73,-28.24,-48.67,71.6,10.29
115,emba,0,CY,1524139200,73,34.81,32.42,73.4,18.34
116,oktyabrskiy,0,RU,1524137400,33,55.61,37.97,59.0,22.37
117,eenhana,0,NA,1524135600,38,-17.48,16.34,87.8,3.36
118,sokoni,0,CD,1524139610,46,-12.89,28.78,82.54,3.62
119,ust-kut,68,RU,1524139610,46,56.78,105.75,28.81,5.41
120,yining,20,CN,1524139610,62,29.04,114.56,66.79,4.74
121,faya,75,SA,1524135600,53,18.39,42.45,73.4,18.34
122,wenatchee,1,US,1524135300,86,47.42,-120.31,44.6,8.05
123,san carlos de bariloche,40,AR,1524135600,81,-41.13,-71.31,51.8,6.93
124,tairua,56,NZ,1524139612,75,-37.02,175.85,59.23,5.41
125,taman,40,RU,1524137400,77,45.22,36.72,59.0,13.42
126,ponta do sol,0,BR,1524139612,65,-20.63,-46.0,68.41,4.41
127,thompson,20,CA,1524135600,86,55.74,-97.86,26.6,2.24
128,agirish,92,RU,1524139613,67,61.92,63.02,36.73,7.43
129,norman wells,75,CA,1524135600,71,65.28,-126.83,5.0,8.05
130,tooele,1,US,1524138960,38,40.53,-112.3,50.0,4.7
131,bosaso,20,SO,1524135600,79,11.28,49.18,86.0,18.34
132,altay,76,CN,1524139614,72,47.83,88.13,34.39,2.73
133,port alfred,0,ZA,1524139615,78,-33.59,26.89,68.14,14.14
134,isangel,48,VU,1524139615,100,-19.55,169.27,77.14,18.72
135,saint-philippe,90,CA,1524138900,80,45.36,-73.48,35.6,4.7
136,northam,0,GB,1524138600,56,51.04,-4.21,69.8,4.7
137,ilulissat,75,GL,1524138600,73,69.22,-51.1,23.0,11.41
138,puerto ayora,44,EC,1524139616,100,-0.74,-90.35,72.01,1.95
139,bauska,20,LV,1524138600,66,56.41,24.19,51.8,20.8
140,torbay,90,CA,1524136620,86,47.66,-52.73,37.4,11.41
141,savelugu,36,GH,1524139617,94,9.63,-0.83,86.41,12.12
142,hithadhoo,92,MV,1524139617,100,-0.6,73.08,78.94,15.48
143,bud,0,NO,1524138600,58,62.91,6.91,60.8,12.75
144,harper,1,US,1524138900,80,30.3,-99.24,46.4,10.22
145,novikovo,24,UA,1524139618,71,45.05,34.56,59.05,16.04
146,dunedin,8,NZ,1524139524,60,-45.87,170.5,54.46,12.12
147,mar del plata,0,AR,1524139464,52,-46.43,-67.52,63.91,26.11
148,lompoc,90,US,1524137700,100,34.64,-120.46,50.0,4.7
149,neepawa,75,CA,1524135600,79,50.23,-99.46,33.8,4.7
150,vaini,20,IN,1524139620,62,15.34,74.49,87.94,4.52
151,los llanos de aridane,75,ES,1524139200,64,28.66,-17.92,71.6,5.82
152,rio gallegos,0,AR,1524135600,71,-51.62,-69.22,51.8,24.16
153,isla mujeres,40,MX,1524134700,83,21.23,-86.73,77.0,5.82
154,esperance,20,TT,1524135600,88,10.24,-61.45,75.2,6.08
155,porto walter,88,BR,1524139622,94,-8.27,-72.74,74.26,2.95
156,srednekolymsk,0,RU,1524139622,91,67.46,153.71,15.31,3.74
157,waingapu,8,ID,1524139622,87,-9.65,120.26,76.96,4.63
158,manta,0,RO,1524139623,74,45.1,24.1,69.76,6.42
159,hasaki,20,JP,1524137400,87,35.73,140.83,60.8,5.82
160,milkovo,56,BG,1524139200,46,41.53,24.68,71.6,3.36
161,peniche,0,PT,1524137400,60,39.36,-9.38,71.6,8.05
162,yamada,75,JP,1524135600,59,36.58,137.08,62.6,2.24
163,necochea,80,AR,1524139513,94,-38.55,-58.74,64.0,5.19
164,kahului,20,US,1524135360,88,20.89,-156.47,71.6,13.87
165,lysychovo,8,UA,1524139625,42,48.48,23.27,63.46,5.97
166,fairbanks,1,US,1524135480,57,64.84,-147.72,28.4,9.1
167,winnemucca,90,US,1524138960,97,40.97,-117.74,33.8,2.73
168,mazagao,20,BR,1524135600,88,-0.12,-51.29,80.6,6.93
169,yellowknife,75,CA,1524135600,84,62.45,-114.38,6.8,8.05
170,poum,40,MK,1524137400,67,41.28,20.71,59.0,6.93
171,katihar,0,IN,1524139627,37,25.54,87.57,90.91,6.98
172,omboue,92,GA,1524139627,100,-1.57,9.26,82.99,4.63
173,khandyga,0,RU,1524139628,66,62.65,135.58,27.55,3.62
174,cookeville,90,US,1524138900,67,36.16,-85.5,44.6,5.82
175,ostrovnoy,80,RU,1524139628,95,68.05,39.51,28.27,19.73
176,port augusta,0,AU,1524135600,36,-32.49,137.76,75.2,4.7
177,joao pinheiro,8,BR,1524139629,71,-17.74,-46.17,71.74,8.1
178,clyde river,1,CA,1524135600,83,70.47,-68.59,-7.61,4.7
179,oneida,90,US,1524137700,93,41.07,-90.23,37.4,8.05
180,nishihara,1,JP,1524138960,67,35.74,139.53,62.6,8.99
181,coquimbo,90,CL,1524135600,93,-29.95,-71.34,53.6,6.93
182,saint george,20,GR,1524136800,38,39.45,22.34,75.2,13.87
183,iwanai,76,JP,1524139631,86,42.97,140.51,48.07,8.43
184,faanui,80,PF,1524139631,100,-16.48,-151.75,81.91,6.53
185,victor harbor,0,AU,1524137400,49,-35.55,138.62,69.8,9.17
186,balkhash,0,KZ,1524139632,69,46.84,74.98,51.49,10.56
187,kruisfontein,0,ZA,1524139632,80,-34.0,24.73,64.54,17.6
188,leningradskiy,56,RU,1524139632,80,69.38,178.42,6.67,5.53
189,mitsamiouli,40,KM,1524135600,74,-11.38,43.28,86.0,8.05
190,otradnoye,0,RU,1524137400,50,59.77,30.8,57.2,11.18
191,folldal,36,NO,1524139633,90,62.14,10.0,46.09,4.07
192,cidreira,24,BR,1524139634,74,-30.17,-50.22,73.36,3.96
193,katsuura,20,JP,1524135600,67,33.93,134.5,60.8,4.7
194,port pirie,0,AU,1524135600,36,-33.18,138.01,75.2,4.7
195,bubaque,0,GW,1524135600,57,11.28,-15.83,80.6,3.36
196,susanville,90,US,1524137700,86,40.42,-120.65,30.2,1.95
197,ranau,64,MY,1524139636,100,5.95,116.67,69.31,1.61
198,chapais,90,CA,1524136560,85,49.78,-74.86,24.8,13.87
199,tsaratanana,64,MG,1524139637,47,-16.8,47.65,89.38,3.62
200,marzuq,44,YE,1524139637,20,14.4,46.47,88.39,6.64
201,bethel,1,US,1524135180,80,60.79,-161.76,33.8,6.93
202,batemans bay,56,AU,1524139638,100,-35.71,150.18,59.5,2.95
203,croy,0,CH,1524136800,45,46.69,6.48,69.8,6.93
204,mogadishu,20,SO,1524139639,100,2.04,45.34,83.26,6.2
205,henderson,75,US,1524138960,18,36.04,-114.98,60.8,13.87
206,vila velha,20,BR,1524135600,83,-3.71,-38.6,80.6,11.41
207,henties bay,0,NA,1524139640,87,-22.12,14.28,70.66,8.99
208,kindu,24,CD,1524139640,39,-2.95,25.92,94.42,2.73
209,andra,48,RU,1524139640,72,62.52,65.89,33.49,7.54
210,atuona,64,PF,1524139641,100,-9.8,-139.03,81.82,16.49
211,rive-de-gier,0,FR,1524139200,33,45.53,4.62,78.8,4.7
212,port elizabeth,1,US,1524138900,57,39.31,-74.98,51.8,13.87
213,monte carmelo,20,BR,1524139642,74,-18.73,-47.5,69.31,9.22
214,broome,0,GB,1524138960,36,52.47,1.45,78.8,6.93
215,tautira,75,PF,1524137400,88,-17.73,-149.15,77.0,3.36
216,airai,8,TL,1524139643,89,-8.93,125.41,70.84,1.72
217,dikson,64,RU,1524139643,93,73.51,80.55,18.64,19.06
218,manyana,0,AU,1524135600,100,-35.26,150.51,64.4,4.7
219,shaunavon,0,CA,1524139644,84,49.65,-108.41,25.93,6.08
220,guerrero negro,48,MX,1524139644,100,27.97,-114.04,54.46,10.78
221,bathsheba,100,BB,1524139644,100,13.22,-59.52,79.21,19.06
222,povenets,20,RU,1524139645,79,62.85,34.83,47.62,4.97
223,aksu,75,KZ,1524137400,52,52.04,76.93,42.8,13.42
224,vardo,90,US,1524138900,100,39.62,-77.74,50.0,3.51
225,college,1,US,1524135480,57,64.86,-147.8,28.4,9.1
226,hualmay,20,PE,1524139647,94,-11.1,-77.61,61.21,1.16
227,lavrentiya,0,RU,1524139647,91,65.58,-170.99,25.39,16.49
228,yokadouma,44,CM,1524139647,67,3.52,15.05,85.24,3.62
229,cayenne,75,GF,1524137400,74,4.94,-52.33,82.4,9.17
230,saldanha,0,PT,1524139648,37,41.42,-6.55,77.59,3.74
231,teguldet,48,RU,1524139648,45,57.31,88.17,33.67,4.63
232,north bend,90,US,1524138960,87,43.41,-124.22,42.8,8.05
233,ketchikan,90,US,1524135360,87,55.34,-131.65,44.6,27.51
234,gushikawa,1,JP,1524138960,82,26.35,127.87,71.6,8.05
235,honiara,75,SB,1524135600,100,-9.43,159.96,75.2,2.95
236,atemar,36,RU,1524139650,85,54.18,45.4,51.49,5.41
237,brownsville,75,US,1524138900,94,25.91,-97.49,71.6,4.7
238,alofi,92,NU,1524135600,78,-19.06,-169.92,78.8,12.75
239,kizilskoye,92,RU,1524139651,82,52.73,58.89,49.96,14.58
240,port lincoln,92,AU,1524139651,100,-34.72,135.86,63.37,8.99
241,paita,0,PE,1524139652,87,-5.09,-81.11,64.63,4.18
242,bodden town,20,KY,1524135600,94,19.28,-81.25,78.8,6.93
243,abha,75,SA,1524135600,53,18.22,42.5,73.4,18.34
244,nagato,0,JP,1524135600,59,34.35,131.14,64.4,8.05
245,hami,68,CN,1524139653,31,42.84,93.51,72.55,1.5
246,jamtara,0,IN,1524139653,20,23.95,86.82,96.13,9.22
247,turukhansk,80,RU,1524139653,83,65.8,87.96,17.2,19.28
248,narsaq,40,GL,1524138600,69,60.91,-46.05,39.2,2.24
249,karangampel,0,ID,1524139654,100,-6.46,108.44,84.07,4.07
250,bom jesus da lapa,0,BR,1524139654,82,-13.25,-43.41,75.79,8.1
251,matveyevka,0,UA,1524139655,72,45.75,33.81,59.95,19.62
252,new ulm,1,US,1524137760,62,44.31,-94.46,30.2,4.7
253,mount isa,0,AU,1524135600,53,-20.73,139.49,75.2,10.11
254,maceio,75,BR,1524139200,69,-9.67,-35.74,82.4,8.05
255,santa cruz de la palma,75,ES,1524139200,64,28.68,-17.76,71.6,5.82
256,muyezerskiy,24,RU,1524139657,67,63.93,31.65,49.87,6.08
257,moose factory,90,CA,1524135600,92,51.26,-80.61,23.0,12.75
258,ponta delgada,20,PT,1524137400,62,37.73,-25.67,59.0,9.17
259,araouane,0,ML,1524139657,15,18.9,-3.53,98.83,9.78
260,shingu,0,JP,1524139658,92,33.72,135.99,63.01,11.79
261,bonavista,12,CA,1524139658,84,48.65,-53.11,37.09,16.26
262,colares,0,PT,1524137400,60,38.8,-9.45,71.6,8.05
263,varhaug,0,NO,1524138600,59,58.61,5.65,66.2,18.34
264,kapit,36,MY,1524139659,96,2.02,112.94,73.27,1.95
265,kaitangata,76,NZ,1524139659,90,-46.28,169.85,51.58,17.83
266,rocha,0,UY,1524139659,72,-34.48,-54.34,73.81,7.65
267,hofn,20,IS,1524135600,76,64.25,-15.21,48.2,8.05
268,lorengau,48,PG,1524139660,100,-2.02,147.27,83.26,4.63
269,champerico,5,MX,1524134940,78,16.38,-93.6,71.6,2.24
270,saquena,92,PE,1524139661,97,-4.67,-73.52,74.44,3.62
271,lebu,76,ET,1524139661,43,8.96,38.73,72.1,7.76
272,laguna,48,MX,1524139661,58,27.52,-110.01,60.94,2.06
273,tiarei,75,PF,1524137400,88,-17.53,-149.33,77.0,3.36
274,dinar,75,TR,1524136800,31,38.07,30.16,75.2,2.24
275,san juan,40,PR,1524135360,78,18.47,-66.12,77.0,16.26
276,mao,40,DO,1524135600,94,19.55,-71.08,73.4,10.11
277,codrington,80,AU,1524139664,97,-28.95,153.24,63.73,2.17
278,souillac,0,FR,1524139200,30,45.6,-0.6,80.6,11.41
279,kaduy,0,RU,1524139665,52,59.2,37.15,58.87,15.14
280,langxiang,8,CN,1524139665,70,46.95,128.87,49.06,3.4
281,abu samrah,0,SY,1524139665,30,35.3,37.18,85.87,10.0
282,sao miguel do araguaia,32,BR,1524139665,85,-13.28,-50.16,77.32,6.98
283,kavaratti,24,IN,1524139406,100,10.57,72.64,84.07,14.14
284,kirakira,76,SB,1524139669,100,-10.46,161.92,80.83,14.14
285,porto belo,75,BR,1524138300,100,-27.15,-48.54,71.6,11.41
286,palmer,0,AU,1524137400,49,-34.85,139.16,69.8,9.17
287,lask,0,PL,1524139200,45,51.59,19.13,68.0,12.75
288,magnitka,8,RU,1524139670,51,55.34,59.7,52.39,2.73
289,evensk,36,RU,1524139671,89,61.92,159.24,26.56,8.66
290,gorin,90,US,1524137700,86,40.36,-92.02,33.8,8.05
291,tabanan,88,ID,1524139672,91,-8.54,115.13,76.69,1.61
292,djambala,92,CG,1524139672,100,-2.55,14.76,72.37,4.63
293,sabang,80,PH,1524139672,93,13.72,123.58,79.84,8.21
294,ahipara,80,NZ,1524139673,97,-35.17,173.16,57.16,3.96
295,comodoro rivadavia,0,AR,1524135600,42,-45.87,-67.48,68.0,21.92
296,hamilton,75,BM,1524137160,72,32.3,-64.78,68.0,12.75
297,fort nelson,75,CA,1524135600,48,58.81,-122.69,41.0,3.36
298,griffith,0,AU,1524139674,55,-34.29,146.06,62.83,7.99
299,mahebourg,40,MU,1524135600,74,-20.41,57.7,86.0,16.11
300,lishui,0,CN,1524139674,79,28.45,119.91,56.89,2.06
301,morton,75,US,1524139080,100,46.56,-122.28,37.4,1.95
302,port hedland,0,AU,1524137400,78,-20.31,118.58,78.8,6.93
303,saint-pierre,0,FR,1524139200,53,48.95,4.24,78.8,8.05
304,along,80,IN,1524139676,97,28.17,94.8,59.59,1.16
305,ambala,100,IN,1524139676,28,30.38,76.77,86.77,11.56
306,naron,40,ES,1524139200,77,43.52,-8.15,60.8,9.17
307,rawson,0,AR,1524139677,62,-43.3,-65.11,54.1,9.78
308,patacamaya,76,BO,1524139677,100,-17.23,-67.92,32.14,4.07
309,nabire,88,ID,1524139677,98,-3.36,135.5,69.13,1.95
310,grand gaube,40,MU,1524135600,74,-20.01,57.66,86.0,16.11
311,ranong,75,TH,1524139200,94,9.96,98.62,78.8,5.97
312,davidson,1,US,1524138840,59,35.5,-80.85,66.2,13.87
313,roald,0,NO,1524138600,59,62.58,6.12,62.6,14.99
314,megion,20,RU,1524137400,64,61.04,76.11,37.4,17.9
315,matara,90,PE,1524135600,75,-13.74,-72.9,42.8,2.06
316,praia da vitoria,20,PT,1524135600,72,38.73,-27.07,60.8,12.01
317,talnakh,56,RU,1524139680,81,69.49,88.39,14.68,17.16
318,kawalu,48,ID,1524139680,99,-7.38,108.21,69.13,1.39
319,rolandia,0,BR,1524135600,72,-23.31,-51.37,71.6,10.22
320,dicabisagan,68,PH,1524139681,100,17.08,122.42,76.33,8.99
321,puerto escondido,5,MX,1524134460,61,15.86,-97.07,77.0,6.93
322,vestmannaeyjar,75,IS,1524135600,100,63.44,-20.27,46.4,19.46
323,joshimath,80,IN,1524139682,98,30.57,79.57,26.56,1.05
324,tymovskoye,56,RU,1524139578,84,50.85,142.66,30.79,2.39
325,yumen,0,CN,1524139683,22,40.29,97.04,64.9,7.54
326,siruguppa,0,IN,1524139683,29,15.63,76.89,99.73,3.96
327,fernie,20,CA,1524135600,69,49.5,-115.06,33.8,6.93
328,sirajganj,0,BD,1524139684,81,24.46,89.71,85.24,3.51
329,nanortalik,32,GL,1524139684,96,60.14,-45.24,33.13,3.62
330,vanimo,44,PG,1524139684,100,-2.67,141.3,82.63,8.21
331,pasighat,56,IN,1524139685,78,28.06,95.33,67.33,0.16
332,acajutla,8,SV,1524139685,88,13.59,-89.83,70.93,2.39
333,kolda,0,SN,1524139685,33,12.89,-14.94,90.37,4.63
334,upernavik,8,GL,1524139686,100,72.79,-56.15,5.14,19.17
335,trairi,56,BR,1524139672,99,-3.28,-39.27,83.53,19.06
336,yatou,75,CM,1524135600,70,3.63,9.81,89.6,5.82
337,nichinan,0,JP,1524135600,63,31.65,131.31,64.4,8.05
338,qaqortoq,40,GL,1524138600,69,60.72,-46.03,39.2,2.24
339,blagoyevo,32,RU,1524139687,56,63.37,47.92,36.91,8.77
340,kidal,0,ML,1524139688,13,18.44,1.41,97.21,10.0
341,san policarpo,88,PH,1524139688,96,12.18,125.51,81.19,7.43
342,namibe,8,AO,1524139688,98,-15.19,12.15,79.48,7.65
343,san cristobal,75,EC,1524135600,93,-0.39,-78.55,50.0,4.7
344,martapura,48,ID,1524139689,87,-3.41,114.85,82.09,6.08
345,longyearbyen,20,NO,1524138600,66,78.22,15.63,15.8,4.7
346,gigmoto,68,PH,1524139690,100,13.78,124.39,80.11,9.78
347,severo-kurilsk,56,RU,1524139690,100,50.68,156.12,30.07,9.55
348,wewak,48,PG,1524139690,98,-3.55,143.63,76.87,2.62
349,coos bay,90,US,1524138960,87,43.37,-124.22,42.8,8.05
350,anastacio,32,BR,1524139691,76,-20.48,-55.81,79.21,7.09
351,rodrigues alves,75,BR,1524136500,94,-7.74,-72.65,73.4,3.4
352,camacari,92,BR,1524139692,100,-12.7,-38.32,74.62,8.21
353,masterton,12,NZ,1524139657,74,-40.95,175.66,55.27,18.28
354,kalmar,0,SE,1524138600,59,56.66,16.36,62.6,10.29
355,bogorodskoye,80,RU,1524139693,76,52.37,140.44,33.76,3.18
356,fairlie,1,US,1524138960,57,33.31,-95.96,50.0,8.05
357,marawi,64,PH,1524139693,100,8.0,124.29,68.95,1.39
358,chifeng,44,CN,1524139694,43,42.27,118.96,62.02,9.55
359,aklavik,40,CA,1524135600,68,68.22,-135.01,-16.61,3.96
360,vieux-habitants,20,GP,1524137400,74,16.06,-61.77,78.8,9.17
361,sharjah,0,AE,1524135600,51,25.36,55.39,86.0,17.22
362,tadine,80,NC,1524139695,96,-21.55,167.88,77.59,17.83
363,roma,20,IT,1524136800,46,41.89,12.48,77.0,4.7
364,malanville,0,NE,1524139696,27,11.86,3.39,103.87,8.77
365,terrace bay,0,CA,1524139637,100,48.78,-87.1,29.71,15.03
366,kenai,90,US,1524135360,80,60.55,-151.26,35.6,8.05
367,auki,8,NG,1524139697,27,12.18,6.51,101.98,5.08
368,bemidji,1,US,1524137700,79,47.48,-94.89,26.6,1.72
369,santander,12,PH,1524139698,88,9.42,123.33,83.89,9.1
370,egvekinot,0,RU,1524139698,79,66.32,-179.17,7.84,2.51
371,ancud,92,CL,1524139698,97,-41.87,-73.83,57.61,11.45
372,suntar,64,RU,1524139698,48,62.16,117.65,30.16,8.77
373,hof,0,DE,1524138960,24,50.32,11.92,73.4,4.7
374,geraldton,5,CA,1524135600,92,49.72,-86.95,15.8,3.36
375,rio grande,0,BR,1524135600,93,-32.03,-52.1,66.2,9.78
376,san quintin,75,PH,1524135600,74,17.54,120.52,86.0,2.24
377,millet,20,CA,1524135600,86,53.09,-113.47,30.2,6.93
378,japura,44,ID,1524139701,94,-0.42,102.29,78.58,1.39
379,khorinsk,0,RU,1524139701,54,52.16,109.78,30.52,3.06
380,baykit,48,RU,1524139702,61,61.68,96.39,17.29,5.53
381,noumea,0,NC,1524137400,77,-22.28,166.46,69.8,3.36
382,annau,75,TM,1524135600,22,37.89,58.52,69.8,6.93
383,mtwara,56,TZ,1524139703,100,-10.28,40.18,80.47,5.75
384,nhulunbuy,40,AU,1524135600,88,-12.18,136.78,80.6,5.82
385,bilma,0,NE,1524139703,12,18.69,12.92,104.41,13.58
386,elbistan,32,TR,1524139703,31,38.2,37.19,71.29,9.44
387,kalabo,0,ZM,1524139704,31,-15.0,22.67,87.94,6.98
388,sao joao da barra,75,BR,1524135600,94,-21.64,-41.05,69.8,3.96
389,sitka,0,US,1524139704,76,37.17,-99.65,35.02,3.06
390,ville-marie,90,CA,1524135600,79,47.33,-79.44,23.0,21.92
391,gustavo diaz ordaz,0,MX,1524139705,76,24.01,-104.69,45.28,2.95
392,shenjiamen,0,CN,1524139705,94,29.96,122.3,60.85,15.03
393,pangody,24,RU,1524139706,91,65.85,74.49,19.9,12.68
394,samarai,92,PG,1524139706,100,-10.62,150.67,79.48,8.55
395,ginda,48,IN,1524139706,94,30.69,78.49,50.41,1.5
396,iqaluit,5,CA,1524135600,77,63.75,-68.52,-0.41,21.92
397,kraljevo,40,RS,1524137400,40,43.72,20.69,71.6,8.05
398,misratah,0,LY,1524139707,78,32.38,15.09,68.68,15.48
399,garden city,90,US,1524138960,93,40.73,-73.63,44.6,6.93
400,orebro,0,SE,1524138600,48,59.27,15.21,64.4,9.17
401,pisco,56,PE,1524135600,82,-13.71,-76.2,62.6,2.51
402,russell,0,AR,1524135600,62,-33.01,-68.8,59.0,1.72
403,acapulco,5,MX,1524134580,83,16.86,-99.88,75.2,2.24
404,rovaniemi,0,FI,1524138600,56,66.5,25.72,41.0,11.41
405,carnarvon,0,ZA,1524139709,34,-30.97,22.13,63.46,5.75
406,charleston,90,US,1524138840,61,38.35,-81.63,46.4,19.46
407,ixtapa,5,MX,1524134700,63,20.71,-105.21,64.4,2.24
408,luderitz,0,NA,1524139710,88,-26.65,15.16,65.17,15.26
409,mehamn,40,NO,1524138600,87,71.03,27.85,32.0,16.11
410,barraute,90,CA,1524137760,92,48.43,-77.63,21.2,12.75
411,kinsale,75,IE,1524137400,100,51.71,-8.52,51.8,5.82
412,leh,76,IN,1524139711,93,34.16,77.58,23.68,1.72
413,cockburn town,0,TC,1524139459,95,21.46,-71.14,79.48,16.71
414,kosice,0,CZ,1524135600,49,50.18,15.53,69.8,3.36
415,ugoofaaru,76,MV,1524139712,100,5.67,73.0,84.97,7.2
416,sol-iletsk,92,RU,1524139712,66,51.16,55.0,57.88,13.58
417,qandala,0,SO,1524139713,65,11.47,49.87,83.89,3.74
418,tocopilla,56,CL,1524139713,100,-22.09,-70.2,60.94,2.51
419,pacific grove,1,US,1524137700,87,36.62,-121.92,46.4,5.64
420,grindavik,75,IS,1524137400,87,63.84,-22.43,48.2,21.92
421,hede,0,SE,1524138600,44,60.45,15.49,59.0,2.24
422,port hardy,75,CA,1524135600,100,50.7,-127.42,33.8,2.24
423,maningrida,48,AU,1524139715,89,-12.05,134.23,81.73,11.12
424,williston,90,US,1524138900,100,48.15,-103.62,33.8,4.7
425,panaba,0,MX,1524139715,96,21.28,-88.27,70.84,4.63
426,qaanaaq,12,GL,1524139716,78,77.48,-69.36,-4.13,6.98
427,huilong,64,CN,1524139716,53,28.89,110.18,68.59,2.73
428,prado,92,BR,1524139716,97,-17.34,-39.22,79.57,14.7
429,prince rupert,90,CA,1524137760,81,54.32,-130.32,44.6,18.34
430,mineiros,92,BR,1524139717,95,-17.57,-52.55,70.75,4.18
431,barela,0,IN,1524139718,19,23.1,80.05,99.37,2.95
432,awbari,92,LY,1524139718,15,26.59,12.77,91.18,10.22
433,nago,0,IT,1524136800,36,45.88,10.89,75.2,8.05
434,loudi,48,CN,1524139718,54,27.73,112.0,74.62,7.99
435,sendafa,76,ET,1524139719,43,9.16,39.02,72.1,7.76
436,inhambane,0,MZ,1524139720,64,-23.87,35.38,87.94,5.53
437,punta gorda,0,US,1524137700,100,26.93,-82.05,64.4,2.62
438,taoudenni,0,ML,1524139721,15,22.68,-3.98,93.88,11.12
439,maldonado,0,UY,1524139721,77,-34.91,-54.96,73.18,6.42
440,dingle,64,PH,1524139721,76,11.0,122.67,81.46,8.66
441,bambous virieux,40,MU,1524135600,74,-20.34,57.76,86.0,16.11
442,mwinilunga,0,ZM,1524139722,42,-11.73,24.43,81.01,4.07
443,arica,0,CL,1524135600,72,-18.48,-70.32,60.8,3.36
444,wanning,0,AT,1524136800,33,48.64,13.53,71.6,9.17
445,te anau,92,NZ,1524139723,97,-45.41,167.72,46.99,9.44
446,luohe,0,CN,1524139723,48,33.57,114.03,75.16,11.01
447,havoysund,75,NO,1524138600,99,71.0,24.66,32.0,9.17
448,touros,36,BR,1524139724,74,-5.2,-35.46,85.69,10.78
449,fethiye,75,TR,1524136800,68,36.62,29.12,69.8,11.41
450,omsukchan,68,RU,1524139725,88,62.53,155.8,19.99,3.62
451,puri,88,ID,1524139725,98,-7.54,112.45,71.47,2.73
452,ratnagiri,36,IN,1524139726,92,16.98,73.3,86.5,12.12
453,verkhnevilyuysk,20,RU,1524139726,59,63.45,120.31,29.26,9.22
454,alugan,88,PH,1524139726,96,12.22,125.48,81.19,7.43
455,goderich,8,CA,1524139727,86,43.74,-81.71,30.61,17.05
456,zagora,0,HR,1524139200,38,46.19,15.87,73.4,6.93
457,tonekabon,0,IR,1524135600,67,36.82,50.88,64.4,13.87
458,port moresby,20,PG,1524135600,100,-9.47,147.16,77.0,1.12
459,morondava,0,MG,1524139728,84,-20.3,44.28,83.71,6.42
460,canakkale,0,TR,1524135000,52,40.15,26.41,69.8,19.46
461,pestretsy,90,RU,1524137400,100,55.75,49.66,46.4,8.95
462,paragominas,8,BR,1524139729,100,-3.0,-47.35,79.84,4.52
463,shache,0,CN,1524139729,26,38.42,77.24,64.81,18.72
464,caborca,0,MX,1524139729,58,30.58,-111.1,43.12,2.62
465,apatou,20,SR,1524139730,90,5.16,-54.34,78.22,3.06
466,aktau,0,KZ,1524137400,62,43.65,51.16,57.2,26.84
467,bahia blanca,0,AR,1524139533,89,-38.72,-62.27,58.87,6.2
468,igarka,68,RU,1524139731,84,67.47,86.57,15.76,21.52
469,nadym,36,RU,1524139731,87,65.53,72.51,20.08,13.58
470,adrar,0,DZ,1524135600,22,27.87,-0.29,80.6,11.41
471,zhuanghe,0,CN,1524139735,91,39.7,122.97,46.0,6.98
472,borba,0,PT,1524139200,41,38.81,-7.46,75.2,11.41
473,cedar city,1,US,1524138780,19,37.68,-113.06,48.2,13.87
474,dharchula,24,IN,1524139735,88,29.85,80.53,45.28,1.39
475,tual,56,ID,1524139736,100,-5.67,132.75,80.83,0.16
476,redlands,90,US,1524138000,71,34.06,-117.19,60.8,3.36
477,bukama,0,CD,1524139737,57,-9.2,25.85,89.74,5.53
478,manthani,0,IN,1524139737,26,18.65,79.67,103.33,4.63
479,mercedes,0,UY,1524139737,80,-33.25,-58.03,72.01,8.1
480,seoul,1,KR,1524139080,58,37.57,126.98,62.6,4.7
481,mildura,0,AU,1524139738,73,-34.18,142.16,60.04,6.08
482,saldus,0,LV,1524139738,66,56.67,22.49,57.16,20.51
483,arshan,0,YE,1524139739,23,14.32,46.95,89.92,7.76
484,boende,8,CD,1524139739,62,-0.28,20.88,87.85,4.52
485,aripuana,36,BR,1524139739,90,-9.17,-60.63,78.13,2.95
486,nizhnevartovsk,20,RU,1524137400,64,60.93,76.58,37.4,17.9
487,sheksna,0,RU,1524139740,66,59.21,38.5,55.27,14.14
488,maryville,1,US,1524138780,92,40.35,-94.87,28.4,4.7
489,naze,75,NG,1524135600,70,5.43,7.07,87.8,8.05
490,sisimiut,32,GL,1524139741,94,66.94,-53.67,17.65,1.95
491,mayo,5,CA,1524135600,45,63.59,-135.9,24.8,6.93
492,manokwari,36,ID,1524139742,100,-0.87,134.08,81.19,4.41
493,hoyanger,40,NO,1524138600,62,61.22,6.07,60.8,8.05
494,kuopio,0,FI,1524138600,40,62.89,27.68,53.6,8.05
495,maungatapere,76,NZ,1524139742,83,-35.76,174.21,54.01,4.41
496,moussoro,0,TD,1524139743,13,13.64,16.49,107.29,12.12
497,hambantota,48,LK,1524139743,100,6.12,81.12,81.55,9.66
498,port macquarie,40,AU,1524135600,73,-31.43,152.91,69.8,3.36
499,sanming,24,CN,1524139744,79,26.24,117.6,63.01,1.95
500,bilibino,0,RU,1524139744,88,68.06,166.44,18.91,2.17
501,sola,0,FI,1524138600,79,62.78,29.36,53.6,6.93
502,sucha beskidzka,20,PL,1524139200,40,49.74,19.59,73.4,11.41
503,reconquista,48,AR,1524139745,93,-29.14,-59.64,72.1,6.98
504,santo angelo,20,BR,1524139745,67,-28.3,-54.26,72.91,7.99
505,fort saint james,68,CA,1524139746,74,54.43,-124.25,29.17,2.51
506,jashpurnagar,0,IN,1524139746,19,22.88,84.14,93.79,7.76
507,presidente olegario,36,BR,1524139746,78,-18.42,-46.42,68.86,8.43
508,fukue,20,JP,1524137400,87,35.03,136.69,60.8,6.93
509,anadyr,0,RU,1524135600,92,64.73,177.51,28.4,2.24
510,neiafu,92,TO,1524139750,97,-18.65,-173.98,81.1,23.09
511,meulaboh,92,ID,1524139750,100,4.14,96.13,80.38,3.18
512,kristiansund,0,NO,1524138600,51,63.12,7.73,60.8,6.93
513,richards bay,92,ZA,1524139751,99,-28.77,32.06,69.13,11.01
514,teknaf,0,BD,1524139751,83,20.86,92.31,81.28,2.51
515,marsh harbour,0,BS,1524139514,100,26.54,-77.06,72.73,7.65
516,petushki,92,RU,1524139752,61,55.93,39.46,54.55,20.62
517,payson,1,US,1524138960,21,40.04,-111.73,50.0,4.7
518,moindou,0,NC,1524137400,77,-21.69,165.68,69.8,3.36
519,mehkar,0,IN,1524139609,17,20.15,76.57,101.8,5.75
520,yulara,80,AU,1524135600,21,-25.24,130.99,82.4,6.93
521,gamboula,64,CF,1524139753,67,4.12,15.14,87.04,9.66
522,mae sot,20,MM,1524135600,43,16.71,98.57,91.4,12.75
523,villena,0,ES,1524139200,72,38.64,-0.87,66.2,11.41
524,birao,0,CF,1524139755,12,10.3,22.78,102.79,10.78
525,superior,1,US,1524138000,79,39.95,-105.17,37.4,1.39
526,vila franca do campo,20,PT,1524137400,62,37.72,-25.43,59.0,9.17
527,byron bay,92,AU,1524135600,88,-28.65,153.62,68.0,4.7
528,goure,20,NE,1524139756,21,13.98,10.27,106.12,6.64
529,umm lajj,0,SA,1524139756,45,25.02,37.27,93.07,13.24
530,kabarnet,75,KE,1524137400,60,0.5,35.74,69.8,10.29
531,farkhor,92,TJ,1524139757,100,37.49,69.4,46.9,3.62
532,jadu,0,LY,1524139757,44,31.95,12.03,72.1,13.8
533,bowen,88,AU,1524135600,88,-20.01,148.25,71.6,6.93
534,naifaru,76,MV,1524139758,100,5.44,73.37,84.97,7.2
535,zolotkovo,92,RU,1524139758,99,55.53,41.1,48.43,17.6
536,pervomayskiy,92,RU,1524139759,99,53.24,40.29,48.43,11.01
537,high level,1,CA,1524139200,68,58.52,-117.13,30.2,4.7
538,lexington,90,US,1524137700,69,38.05,-84.5,39.2,8.05
539,galesong,20,ID,1524139200,88,-5.32,119.37,78.8,1.12
540,miri,68,NG,1524139760,50,10.31,9.75,89.2,1.61
541,mutis,32,CO,1524139760,100,6.23,-77.4,78.13,5.19
542,aquiraz,20,BR,1524135600,83,-3.9,-38.39,80.6,11.41
543,kholodnyy,36,RU,1524139762,79,62.72,147.95,6.13,2.51
544,bayevo,64,RU,1524139762,52,53.27,80.77,40.78,7.76
545,juneau,90,US,1524137340,86,58.3,-134.42,39.2,12.75
546,topeka,40,US,1524136140,80,39.05,-95.68,37.4,5.82
547,bauchi,68,NG,1524139763,50,10.31,9.85,89.2,1.61
548,bodmin,40,GB,1524138600,87,50.47,-4.72,55.4,2.24
